{
"type": "FeatureCollection",
"name": "ldis",
"features": [
{ "type": "Feature", "properties": { "nombre": "Hola", "clasificacion": "Otro", "telefono": "", "url1": "", "url2": "" }, "geometry": { "type": "Point", "coordinates": [ -3.786833786863271, 40.412409886058981 ] } },
{ "type": "Feature", "properties": { "nombre": "Talamanca de Jarama (Madrid)", "clasificacion": "LDI", "telefono": "", "url1": "https://www.talamancadejarama.org/informacion-de-interes/turismo-2/", "url2": "https://www.visitasguiadastalamancadejarama.es/" }, "geometry": { "type": "Point", "coordinates": [ -3.512119362578233, 40.745443635615942 ] } },
{ "type": "Feature", "properties": { "nombre": "Manadero del Aguisejo, Sima de Villacadima, Villacadima, Cueva del Agua - Villacadima (Guadalajara)", "clasificacion": "Ruta", "telefono": "", "url1": "https://guadarramista.blogspot.com/2023/11/manadero-del-aguisejo-sima-de.html", "url2": "" }, "geometry": { "type": "Point", "coordinates": [ -3.249448620921049, 41.304622167100469 ] } },
{ "type": "Feature", "properties": { "nombre": "Presa de Buendía a la Ermita de la Virgen de los Desamparados - Buendía (Cuenca)", "clasificacion": "Ruta_AS", "telefono": "", "url1": "https://www.instagram.com/reel/DFhc5xkMXsg/?igsh=MTg0OWtzc3lxM2g1MQ%3D%3D", "url2": "https://es.wikiloc.com/rutas-senderismo/presa-de-buendia-a-la-ermita-de-la-virgen-de-los-desamparados-117624693" }, "geometry": { "type": "Point", "coordinates": [ -2.784118654534152, 40.400289907949208 ] } },
{ "type": "Feature", "properties": { "nombre": "Cívica - Brihuega (Guadalajara)", "clasificacion": "LDI_AS", "telefono": "", "url1": "https://www.instagram.com/reel/DFfu0Emth1c/?igsh=NG92aDlyaWhzZW9v", "url2": "" }, "geometry": { "type": "Point", "coordinates": [ -2.784594815961767, 40.801935779203923 ] } },
{ "type": "Feature", "properties": { "nombre": "Jardines Lur Garden - Oiartzun (Gipuzkoa)", "clasificacion": "LDI", "telefono": "", "url1": "https://lurgarden.eus/", "url2": "" }, "geometry": { "type": "Point", "coordinates": [ -1.872723012973544, 43.281267845780143 ] } },
{ "type": "Feature", "properties": { "nombre": "Cueva del Tesoro - Rincón de la Victoria (Málaga)", "clasificacion": "LDI_AS", "telefono": "", "url1": "https://www.turismoenrincon.es/cueva-del-tesoro/", "url2": "" }, "geometry": { "type": "Point", "coordinates": [ -4.297534330664424, 36.719807820758206 ] } },
{ "type": "Feature", "properties": { "nombre": "Marmitas del Gigante - Garganta la Olla (Cáceres)", "clasificacion": "LDI_AS", "telefono": "", "url1": "https://www.instagram.com/reel/DId9SETs9l1/?igsh=Zzg2aTJoaWlrc3Q1", "url2": "" }, "geometry": { "type": "Point", "coordinates": [ -5.777630488857632, 40.117184905196652 ] } }
]
}
